{
    "type": "FeatureCollection",
    "features": [
        {
            "type": "Feature",
            "geometry": {
                "type": "Point",
                "coordinates": [
                    10.4452219,
                    11.9627608
                ]
            },
            "properties": {
                "name": "Gadiya Dispensary",
                "amenity": "hospital",
                "district": "Gamawa",
                "municipality": "Gadiya",
                "state": "Bauchi",
                "facility_type": "dispensary",
                "operator": "public",
                "source": "ehealthafrica.org",
                "source_date": "2013"
            }
        },
        {
            "type": "Feature",
            "geometry": {
                "type": "Point",
                "coordinates": [
                    10.6978086,
                    11.9635516
                ]
            },
            "properties": {
                "name": "Kesa Dispensary",
                "amenity": "hospital",
                "district": "Gamawa",
                "municipality": "Udubo Central",
                "state": "Bauchi",
                "facility_type": "dispensary",
                "operator": "public",
                "source": "ehealthafrica.org",
                "source_date": "2014"
            }
        },
        {
            "type": "Feature",
            "geometry": {
                "type": "Point",
                "coordinates": [
                    10.5316951,
                    12.1391779
                ]
            },
            "properties": {
                "name": "General Hospital Gamawa",
                "amenity": "hospital",
                "district": "Gamawa",
                "municipality": "Gamawa North",
                "state": "Bauchi",
                "facility_type": "hospital",
                "operator": "public",
                "source": "ehealthafrica.org",
                "source_date": "2013"
            }
        },
        {
            "type": "Feature",
            "geometry": {
                "type": "Point",
                "coordinates": [
                    10.1999516,
                    12.2062922
                ]
            },
            "properties": {
                "name": "Makawa Dispensary",
                "amenity": "hospital",
                "district": "Zaki",
                "municipality": "Makawa",
                "state": "Bauchi",
                "facility_type": "dispensary",
                "operator": "public",
                "source": "ehealthafrica.org",
                "source_date": "2013"
            }
        },
        {
            "type": "Feature",
            "geometry": {
                "type": "Point",
                "coordinates": [
                    10.9179788,
                    11.5762749
                ]
            },
            "properties": {
                "name": "Dorawa Dispensary",
                "amenity": "hospital",
                "district": "Damban",
                "municipality": "Janda",
                "state": "Bauchi",
                "facility_type": "dispensary",
                "operator": "public",
                "source": "ehealthafrica.org",
                "source_date": "2013"
            }
        },
        {
            "type": "Feature",
            "geometry": {
                "type": "Point",
                "coordinates": [
                    10.6625371,
                    11.4933332
                ]
            },
            "properties": {
                "name": "Kafin Zaka Dispensary",
                "amenity": "hospital",
                "district": "Misau",
                "municipality": "Sarma",
                "state": "Bauchi",
                "facility_type": "dispensary",
                "operator": "public",
                "source": "ehealthafrica.org",
                "source_date": "2013"
            }
        },
        {
            "type": "Feature",
            "geometry": {
                "type": "Point",
                "coordinates": [
                    10.6712016,
                    11.4773166
                ]
            },
            "properties": {
                "name": "Yelwa Sarman Dispensary",
                "amenity": "hospital",
                "district": "Misau",
                "municipality": "Sarma",
                "state": "Bauchi",
                "facility_type": "dispensary",
                "operator": "public",
                "source": "ehealthafrica.org",
                "source_date": "2013"
            }
        },
        {
            "type": "Feature",
            "geometry": {
                "type": "Point",
                "coordinates": [
                    10.8977585,
                    11.453656
                ]
            },
            "properties": {
                "name": "G/Jarma",
                "amenity": "hospital",
                "district": "Damban",
                "municipality": "Janda",
                "state": "Bauchi",
                "facility_type": "dispensary",
                "operator": "public",
                "source": "ehealthafrica.org",
                "source_date": "2013"
            }
        },
        {
            "type": "Feature",
            "geometry": {
                "type": "Point",
                "coordinates": [
                    10.9348249,
                    11.1884837
                ]
            },
            "properties": {
                "name": "Makafiya Dispensary",
                "amenity": "hospital",
                "district": "Darazo",
                "municipality": "Papa South",
                "state": "Bauchi",
                "facility_type": "dispensary",
                "operator": "public",
                "source": "ehealthafrica.org",
                "source_date": "2013"
            }
        },
        {
            "type": "Feature",
            "geometry": {
                "type": "Point",
                "coordinates": [
                    9.8385838,
                    10.3172195
                ]
            },
            "properties": {
                "name": "Maijama'a Clinic",
                "amenity": "hospital",
                "district": "Bauchi",
                "municipality": "Hardo",
                "state": "Bauchi",
                "facility_type": "dispensary",
                "operator": "private",
                "source": "ehealthafrica.org",
                "source_date": "2013"
            }
        },
        {
            "type": "Feature",
            "geometry": {
                "type": "Point",
                "coordinates": [
                    9.25008,
                    11.3082
                ]
            },
            "properties": {
                "name": "Iyayi Dispensary",
                "amenity": "hospital",
                "district": "Ningi",
                "municipality": "Balma",
                "state": "Bauchi",
                "facility_type": "dispensary",
                "operator": "public",
                "source": "ehealthafrica.org",
                "source_date": "2013"
            }
        },
        {
            "type": "Feature",
            "geometry": {
                "type": "Point",
                "coordinates": [
                    8.7595558,
                    10.4529722
                ]
            },
            "properties": {
                "name": "Model Primary Health Center Rahama",
                "amenity": "hospital",
                "district": "Toro",
                "municipality": "Rahama",
                "state": "Bauchi",
                "facility_type": "health_centre",
                "operator": "public",
                "source": "ehealthafrica.org",
                "source_date": "2014"
            }
        },
        {
            "type": "Feature",
            "geometry": {
                "type": "Point",
                "coordinates": [
                    10.3008603,
                    10.2602242
                ]
            },
            "properties": {
                "name": "Bakin Kogi Model Primary Health Center",
                "amenity": "hospital",
                "district": "Alkaleri",
                "municipality": "Alkaleri West",
                "state": "Bauchi",
                "facility_type": "health_centre",
                "operator": "public",
                "source": "ehealthafrica.org",
                "source_date": "2013"
            }
        },
        {
            "type": "Feature",
            "geometry": {
                "type": "Point",
                "coordinates": [
                    10.3329598,
                    10.2713632
                ]
            },
            "properties": {
                "name": "Bojos Dispensary",
                "amenity": "hospital",
                "district": "Alkaleri",
                "municipality": "Alkaleri East",
                "state": "Bauchi",
                "facility_type": "dispensary",
                "operator": "public",
                "source": "ehealthafrica.org",
                "source_date": "2013"
            }
        },
        {
            "type": "Feature",
            "geometry": {
                "type": "Point",
                "coordinates": [
                    10.3005274,
                    10.2610311
                ]
            },
            "properties": {
                "name": "Guruntun Dispensary",
                "amenity": "hospital",
                "district": "Alkaleri",
                "municipality": "Alkaleri West",
                "state": "Bauchi",
                "facility_type": "dispensary",
                "operator": "public",
                "source": "ehealthafrica.org",
                "source_date": "2013"
            }
        },
        {
            "type": "Feature",
            "geometry": {
                "type": "Point",
                "coordinates": [
                    10.334689,
                    10.271841
                ]
            },
            "properties": {
                "name": "Maimadi Health Center",
                "amenity": "hospital",
                "district": "Alkaleri",
                "municipality": "Alkaleri East",
                "state": "Bauchi",
                "facility_type": "dispensary",
                "operator": "public",
                "source": "ehealthafrica.org",
                "source_date": "2013"
            }
        },
        {
            "type": "Feature",
            "geometry": {
                "type": "Point",
                "coordinates": [
                    10.3417321,
                    10.2724877
                ]
            },
            "properties": {
                "name": "Mari-ari Health Center",
                "amenity": "hospital",
                "district": "Alkaleri",
                "municipality": "Alkaleri East",
                "state": "Bauchi",
                "facility_type": "dispensary",
                "operator": "public",
                "source": "ehealthafrica.org",
                "source_date": "2013"
            }
        },
        {
            "type": "Feature",
            "geometry": {
                "type": "Point",
                "coordinates": [
                    9.829907,
                    10.3012898
                ]
            },
            "properties": {
                "name": "Amasad Clinic",
                "amenity": "hospital",
                "district": "Bauchi",
                "municipality": "Makama B",
                "state": "Bauchi",
                "facility_type": "dispensary",
                "operator": "private",
                "source": "ehealthafrica.org",
                "source_date": "2013"
            }
        },
        {
            "type": "Feature",
            "geometry": {
                "type": "Point",
                "coordinates": [
                    9.8159178,
                    10.2978623
                ]
            },
            "properties": {
                "name": "Ni'ima Hospital",
                "amenity": "hospital",
                "district": "Bauchi",
                "municipality": "Dan Iya",
                "state": "Bauchi",
                "facility_type": "dispensary",
                "operator": "private",
                "source": "ehealthafrica.org",
                "source_date": "2013"
            }
        },
        {
            "type": "Feature",
            "geometry": {
                "type": "Point",
                "coordinates": [
                    9.4739205,
                    9.8368917
                ]
            },
            "properties": {
                "name": "Zwall Health Clinic",
                "amenity": "hospital",
                "district": "Tafawa-Balewa",
                "municipality": "Wai A",
                "state": "Bauchi",
                "facility_type": "health_centre",
                "operator": "public",
                "source": "ehealthafrica.org",
                "source_date": "2013"
            }
        },
        {
            "type": "Feature",
            "geometry": {
                "type": "Point",
                "coordinates": [
                    10.3474734,
                    10.9617328
                ]
            },
            "properties": {
                "name": "Lugge Health Post",
                "amenity": "hospital",
                "district": "Darazo",
                "municipality": "Darazo west",
                "state": "Bauchi",
                "facility_type": "dispensary",
                "operator": "public",
                "source": "Bing;ehealthafrica.org",
                "source_date": "2013"
            }
        },
        {
            "type": "Feature",
            "geometry": {
                "type": "Point",
                "coordinates": [
                    9.8307656,
                    10.896732
                ]
            },
            "properties": {
                "name": "Mingila Nursing Home",
                "amenity": "hospital",
                "district": "Ganjuwa",
                "municipality": "Miya B",
                "state": "Bauchi",
                "facility_type": "health_centre",
                "operator": "private",
                "source": "Bing;ehealthafrica.org",
                "source_date": "2013"
            }
        },
        {
            "type": "Feature",
            "geometry": {
                "type": "Point",
                "coordinates": [
                    9.6075632,
                    10.7302709
                ]
            },
            "properties": {
                "name": "Wushi H Post",
                "amenity": "hospital",
                "district": "Ganjuwa",
                "municipality": "Kariya A",
                "state": "Bauchi",
                "facility_type": "dispensary",
                "operator": "public",
                "source": "Bing;ehealthafrica.org",
                "source_date": "2013"
            }
        },
        {
            "type": "Feature",
            "geometry": {
                "type": "Point",
                "coordinates": [
                    9.9004862,
                    10.5021805
                ]
            },
            "properties": {
                "name": "Dumun Dispensary",
                "amenity": "hospital",
                "district": "Ganjuwa",
                "municipality": "Yali",
                "state": "Bauchi",
                "facility_type": "dispensary",
                "operator": "public",
                "source": "Bing;ehealthafrica.org",
                "source_date": "2013"
            }
        },
        {
            "type": "Feature",
            "geometry": {
                "type": "Point",
                "coordinates": [
                    10.3538865,
                    10.3538078
                ]
            },
            "properties": {
                "name": "N/A",
                "amenity": "hospital",
                "district": "N/A",
                "municipality": "N/A",
                "state": "N/A",
                "facility_type": "N/A",
                "operator": "N/A",
                "source": "N/A",
                "source_date": "N/A"
            }
        },
        {
            "type": "Feature",
            "geometry": {
                "type": "Point",
                "coordinates": [
                    9.8988277,
                    11.6668344
                ]
            },
            "properties": {
                "name": "Sara's Hospital",
                "amenity": "hospital",
                "district": "N/A",
                "municipality": "N/A",
                "state": "N/A",
                "facility_type": "N/A",
                "operator": "private",
                "source": "N/A",
                "source_date": "N/A"
            }
        },
        {
            "type": "Feature",
            "geometry": {
                "type": "Point",
                "coordinates": [
                    9.799994,
                    10.2816162
                ]
            },
            "properties": {
                "name": "Yelwa Domiciliary",
                "amenity": "hospital",
                "district": "N/A",
                "municipality": "N/A",
                "state": "N/A",
                "facility_type": "N/A",
                "operator": "government",
                "source": "local knowledge",
                "source_date": "N/A"
            }
        },
        {
            "type": "Feature",
            "geometry": {
                "type": "Point",
                "coordinates": [
                    9.8292135,
                    10.3233398
                ]
            },
            "properties": {
                "name": "Emergency",
                "amenity": "hospital",
                "district": "N/A",
                "municipality": "N/A",
                "state": "N/A",
                "facility_type": "N/A",
                "operator": "government",
                "source": "local knowledge",
                "source_date": "N/A"
            }
        },
        {
            "type": "Feature",
            "geometry": {
                "type": "Point",
                "coordinates": [
                    9.8413021,
                    10.3336375
                ]
            },
            "properties": {
                "name": "General Hospital (Specialist)",
                "amenity": "hospital",
                "district": "N/A",
                "municipality": "N/A",
                "state": "N/A",
                "facility_type": "N/A",
                "operator": "government",
                "source": "local knowledge",
                "source_date": "N/A"
            }
        },
        {
            "type": "Feature",
            "geometry": {
                "type": "Point",
                "coordinates": [
                    10.5706004,
                    11.0707922
                ]
            },
            "properties": {
                "name": "primary health care",
                "amenity": "hospital",
                "district": "N/A",
                "municipality": "N/A",
                "state": "N/A",
                "facility_type": "N/A",
                "operator": "N/A",
                "source": "N/A",
                "source_date": "N/A"
            }
        },
        {
            "type": "Feature",
            "geometry": {
                "type": "Point",
                "coordinates": [
                    9.3255052,
                    9.6089031
                ]
            },
            "properties": {}
        },
        {
            "type": "Feature",
            "geometry": {
                "type": "Point",
                "coordinates": [
                    9.325366,
                    9.6089409
                ]
            },
            "properties": {}
        },
        {
            "type": "Feature",
            "geometry": {
                "type": "Point",
                "coordinates": [
                    9.3255235,
                    9.6089685
                ]
            },
            "properties": {}
        },
        {
            "type": "Feature",
            "geometry": {
                "type": "Point",
                "coordinates": [
                    9.3253843,
                    9.6090063
                ]
            },
            "properties": {}
        },
        {
            "type": "Feature",
            "geometry": {
                "type": "Point",
                "coordinates": [
                    9.4209614,
                    9.6325634
                ]
            },
            "properties": {}
        },
        {
            "type": "Feature",
            "geometry": {
                "type": "Point",
                "coordinates": [
                    9.420999,
                    9.6324615
                ]
            },
            "properties": {}
        },
        {
            "type": "Feature",
            "geometry": {
                "type": "Point",
                "coordinates": [
                    9.4209515,
                    9.6324662
                ]
            },
            "properties": {}
        },
        {
            "type": "Feature",
            "geometry": {
                "type": "Point",
                "coordinates": [
                    9.4210089,
                    9.6325587
                ]
            },
            "properties": {}
        },
        {
            "type": "Feature",
            "geometry": {
                "type": "Point",
                "coordinates": [
                    9.4268011,
                    9.632724
                ]
            },
            "properties": {}
        },
        {
            "type": "Feature",
            "geometry": {
                "type": "Point",
                "coordinates": [
                    9.4250545,
                    9.631113
                ]
            },
            "properties": {}
        },
        {
            "type": "Feature",
            "geometry": {
                "type": "Point",
                "coordinates": [
                    9.4251518,
                    9.6309875
                ]
            },
            "properties": {}
        },
        {
            "type": "Feature",
            "geometry": {
                "type": "Point",
                "coordinates": [
                    9.4250519,
                    9.6309897
                ]
            },
            "properties": {}
        },
        {
            "type": "Feature",
            "geometry": {
                "type": "Point",
                "coordinates": [
                    9.425262,
                    9.6310334
                ]
            },
            "properties": {}
        },
        {
            "type": "Feature",
            "geometry": {
                "type": "Point",
                "coordinates": [
                    9.4251528,
                    9.6310357
                ]
            },
            "properties": {}
        },
        {
            "type": "Feature",
            "geometry": {
                "type": "Point",
                "coordinates": [
                    9.4252636,
                    9.6311086
                ]
            },
            "properties": {}
        },
        {
            "type": "Feature",
            "geometry": {
                "type": "Point",
                "coordinates": [
                    9.4269283,
                    9.6327855
                ]
            },
            "properties": {}
        },
        {
            "type": "Feature",
            "geometry": {
                "type": "Point",
                "coordinates": [
                    9.4267745,
                    9.6327776
                ]
            },
            "properties": {}
        },
        {
            "type": "Feature",
            "geometry": {
                "type": "Point",
                "coordinates": [
                    9.4269017,
                    9.6328391
                ]
            },
            "properties": {}
        },
        {
            "type": "Feature",
            "geometry": {
                "type": "Point",
                "coordinates": [
                    9.4613704,
                    9.5037431
                ]
            },
            "properties": {}
        },
        {
            "type": "Feature",
            "geometry": {
                "type": "Point",
                "coordinates": [
                    9.461233,
                    9.5038014
                ]
            },
            "properties": {}
        },
        {
            "type": "Feature",
            "geometry": {
                "type": "Point",
                "coordinates": [
                    9.4614005,
                    9.5038121
                ]
            },
            "properties": {}
        },
        {
            "type": "Feature",
            "geometry": {
                "type": "Point",
                "coordinates": [
                    9.4612632,
                    9.5038704
                ]
            },
            "properties": {}
        },
        {
            "type": "Feature",
            "geometry": {
                "type": "Point",
                "coordinates": [
                    9.5031572,
                    9.554975
                ]
            },
            "properties": {}
        },
        {
            "type": "Feature",
            "geometry": {
                "type": "Point",
                "coordinates": [
                    9.5038989,
                    9.5549763
                ]
            },
            "properties": {}
        },
        {
            "type": "Feature",
            "geometry": {
                "type": "Point",
                "coordinates": [
                    9.5039056,
                    9.5538138
                ]
            },
            "properties": {}
        },
        {
            "type": "Feature",
            "geometry": {
                "type": "Point",
                "coordinates": [
                    9.5031532,
                    9.5538006
                ]
            },
            "properties": {}
        },
        {
            "type": "Feature",
            "geometry": {
                "type": "Point",
                "coordinates": [
                    9.5444418,
                    9.5387578
                ]
            },
            "properties": {}
        },
        {
            "type": "Feature",
            "geometry": {
                "type": "Point",
                "coordinates": [
                    9.5445522,
                    9.5388007
                ]
            },
            "properties": {}
        },
        {
            "type": "Feature",
            "geometry": {
                "type": "Point",
                "coordinates": [
                    9.5444166,
                    9.5388207
                ]
            },
            "properties": {}
        },
        {
            "type": "Feature",
            "geometry": {
                "type": "Point",
                "coordinates": [
                    9.5445271,
                    9.5388636
                ]
            },
            "properties": {}
        },
        {
            "type": "Feature",
            "geometry": {
                "type": "Point",
                "coordinates": [
                    9.4644093,
                    9.5800479
                ]
            },
            "properties": {}
        },
        {
            "type": "Feature",
            "geometry": {
                "type": "Point",
                "coordinates": [
                    9.4649431,
                    9.5802013
                ]
            },
            "properties": {}
        },
        {
            "type": "Feature",
            "geometry": {
                "type": "Point",
                "coordinates": [
                    9.4650959,
                    9.5797041
                ]
            },
            "properties": {}
        },
        {
            "type": "Feature",
            "geometry": {
                "type": "Point",
                "coordinates": [
                    9.4646373,
                    9.579667
                ]
            },
            "properties": {}
        },
        {
            "type": "Feature",
            "geometry": {
                "type": "Point",
                "coordinates": [
                    9.4644281,
                    9.5797437
                ]
            },
            "properties": {}
        },
        {
            "type": "Feature",
            "geometry": {
                "type": "Point",
                "coordinates": [
                    9.4902278,
                    9.5687274
                ]
            },
            "properties": {}
        },
        {
            "type": "Feature",
            "geometry": {
                "type": "Point",
                "coordinates": [
                    9.491231,
                    9.5695315
                ]
            },
            "properties": {}
        },
        {
            "type": "Feature",
            "geometry": {
                "type": "Point",
                "coordinates": [
                    9.4917567,
                    9.5690951
                ]
            },
            "properties": {}
        },
        {
            "type": "Feature",
            "geometry": {
                "type": "Point",
                "coordinates": [
                    9.491762,
                    9.5683889
                ]
            },
            "properties": {}
        },
        {
            "type": "Feature",
            "geometry": {
                "type": "Point",
                "coordinates": [
                    9.4914938,
                    9.5681191
                ]
            },
            "properties": {}
        },
        {
            "type": "Feature",
            "geometry": {
                "type": "Point",
                "coordinates": [
                    9.4579026,
                    9.6254473
                ]
            },
            "properties": {}
        },
        {
            "type": "Feature",
            "geometry": {
                "type": "Point",
                "coordinates": [
                    9.45803,
                    9.6253575
                ]
            },
            "properties": {}
        },
        {
            "type": "Feature",
            "geometry": {
                "type": "Point",
                "coordinates": [
                    9.458071,
                    9.6254142
                ]
            },
            "properties": {}
        },
        {
            "type": "Feature",
            "geometry": {
                "type": "Point",
                "coordinates": [
                    9.4579436,
                    9.6255039
                ]
            },
            "properties": {}
        },
        {
            "type": "Feature",
            "geometry": {
                "type": "Point",
                "coordinates": [
                    9.5615759,
                    9.6267678
                ]
            },
            "properties": {}
        },
        {
            "type": "Feature",
            "geometry": {
                "type": "Point",
                "coordinates": [
                    9.5616116,
                    9.6266715
                ]
            },
            "properties": {}
        },
        {
            "type": "Feature",
            "geometry": {
                "type": "Point",
                "coordinates": [
                    9.5616553,
                    9.6266872
                ]
            },
            "properties": {}
        },
        {
            "type": "Feature",
            "geometry": {
                "type": "Point",
                "coordinates": [
                    9.5616196,
                    9.6267835
                ]
            },
            "properties": {}
        },
        {
            "type": "Feature",
            "geometry": {
                "type": "Point",
                "coordinates": [
                    9.5917241,
                    9.6172399
                ]
            },
            "properties": {}
        },
        {
            "type": "Feature",
            "geometry": {
                "type": "Point",
                "coordinates": [
                    9.5922767,
                    9.6174077
                ]
            },
            "properties": {}
        },
        {
            "type": "Feature",
            "geometry": {
                "type": "Point",
                "coordinates": [
                    9.5924182,
                    9.6169412
                ]
            },
            "properties": {}
        },
        {
            "type": "Feature",
            "geometry": {
                "type": "Point",
                "coordinates": [
                    9.5918735,
                    9.6167662
                ]
            },
            "properties": {}
        },
        {
            "type": "Feature",
            "geometry": {
                "type": "Point",
                "coordinates": [
                    9.5705872,
                    9.6553218
                ]
            },
            "properties": {}
        },
        {
            "type": "Feature",
            "geometry": {
                "type": "Point",
                "coordinates": [
                    9.570659,
                    9.6551998
                ]
            },
            "properties": {}
        },
        {
            "type": "Feature",
            "geometry": {
                "type": "Point",
                "coordinates": [
                    9.5706945,
                    9.6552567
                ]
            },
            "properties": {}
        },
        {
            "type": "Feature",
            "geometry": {
                "type": "Point",
                "coordinates": [
                    9.5705517,
                    9.6552648
                ]
            },
            "properties": {}
        },
        {
            "type": "Feature",
            "geometry": {
                "type": "Point",
                "coordinates": [
                    9.5972319,
                    9.660362
                ]
            },
            "properties": {}
        },
        {
            "type": "Feature",
            "geometry": {
                "type": "Point",
                "coordinates": [
                    9.5966933,
                    9.6601131
                ]
            },
            "properties": {}
        },
        {
            "type": "Feature",
            "geometry": {
                "type": "Point",
                "coordinates": [
                    9.5967251,
                    9.6600691
                ]
            },
            "properties": {}
        },
        {
            "type": "Feature",
            "geometry": {
                "type": "Point",
                "coordinates": [
                    9.5968161,
                    9.6601992
                ]
            },
            "properties": {}
        },
        {
            "type": "Feature",
            "geometry": {
                "type": "Point",
                "coordinates": [
                    9.5972847,
                    9.6602606
                ]
            },
            "properties": {}
        },
        {
            "type": "Feature",
            "geometry": {
                "type": "Point",
                "coordinates": [
                    9.5975501,
                    9.6602997
                ]
            },
            "properties": {}
        },
        {
            "type": "Feature",
            "geometry": {
                "type": "Point",
                "coordinates": [
                    9.5976047,
                    9.6603273
                ]
            },
            "properties": {}
        },
        {
            "type": "Feature",
            "geometry": {
                "type": "Point",
                "coordinates": [
                    9.597511,
                    9.6603749
                ]
            },
            "properties": {}
        },
        {
            "type": "Feature",
            "geometry": {
                "type": "Point",
                "coordinates": [
                    9.5973837,
                    9.6604386
                ]
            },
            "properties": {}
        },
        {
            "type": "Feature",
            "geometry": {
                "type": "Point",
                "coordinates": [
                    9.597369,
                    9.6604669
                ]
            },
            "properties": {}
        },
        {
            "type": "Feature",
            "geometry": {
                "type": "Point",
                "coordinates": [
                    9.5974401,
                    9.6604671
                ]
            },
            "properties": {}
        },
        {
            "type": "Feature",
            "geometry": {
                "type": "Point",
                "coordinates": [
                    9.5974254,
                    9.6604954
                ]
            },
            "properties": {}
        },
        {
            "type": "Feature",
            "geometry": {
                "type": "Point",
                "coordinates": [
                    9.5975129,
                    9.6605039
                ]
            },
            "properties": {}
        },
        {
            "type": "Feature",
            "geometry": {
                "type": "Point",
                "coordinates": [
                    9.5968047,
                    9.6601253
                ]
            },
            "properties": {}
        },
        {
            "type": "Feature",
            "geometry": {
                "type": "Point",
                "coordinates": [
                    9.5968477,
                    9.6601554
                ]
            },
            "properties": {}
        },
        {
            "type": "Feature",
            "geometry": {
                "type": "Point",
                "coordinates": [
                    9.5968048,
                    9.6601251
                ]
            },
            "properties": {}
        },
        {
            "type": "Feature",
            "geometry": {
                "type": "Point",
                "coordinates": [
                    9.7530298,
                    9.550524
                ]
            },
            "properties": {}
        },
        {
            "type": "Feature",
            "geometry": {
                "type": "Point",
                "coordinates": [
                    9.7529514,
                    9.5505277
                ]
            },
            "properties": {}
        },
        {
            "type": "Feature",
            "geometry": {
                "type": "Point",
                "coordinates": [
                    9.7530363,
                    9.5506579
                ]
            },
            "properties": {}
        },
        {
            "type": "Feature",
            "geometry": {
                "type": "Point",
                "coordinates": [
                    9.7529579,
                    9.5506616
                ]
            },
            "properties": {}
        },
        {
            "type": "Feature",
            "geometry": {
                "type": "Point",
                "coordinates": [
                    9.6496997,
                    9.5854285
                ]
            },
            "properties": {}
        },
        {
            "type": "Feature",
            "geometry": {
                "type": "Point",
                "coordinates": [
                    9.650047,
                    9.5855343
                ]
            },
            "properties": {}
        },
        {
            "type": "Feature",
            "geometry": {
                "type": "Point",
                "coordinates": [
                    9.6501704,
                    9.5852421
                ]
            },
            "properties": {}
        },
        {
            "type": "Feature",
            "geometry": {
                "type": "Point",
                "coordinates": [
                    9.6499988,
                    9.5850715
                ]
            },
            "properties": {}
        },
        {
            "type": "Feature",
            "geometry": {
                "type": "Point",
                "coordinates": [
                    9.6497922,
                    9.5851336
                ]
            },
            "properties": {}
        },
        {
            "type": "Feature",
            "geometry": {
                "type": "Point",
                "coordinates": [
                    9.6713381,
                    9.5967114
                ]
            },
            "properties": {}
        },
        {
            "type": "Feature",
            "geometry": {
                "type": "Point",
                "coordinates": [
                    9.6715366,
                    9.5966903
                ]
            },
            "properties": {}
        },
        {
            "type": "Feature",
            "geometry": {
                "type": "Point",
                "coordinates": [
                    9.6715191,
                    9.5965355
                ]
            },
            "properties": {}
        },
        {
            "type": "Feature",
            "geometry": {
                "type": "Point",
                "coordinates": [
                    9.6715004,
                    9.5964469
                ]
            },
            "properties": {}
        },
        {
            "type": "Feature",
            "geometry": {
                "type": "Point",
                "coordinates": [
                    9.6714574,
                    9.5963888
                ]
            },
            "properties": {}
        },
        {
            "type": "Feature",
            "geometry": {
                "type": "Point",
                "coordinates": [
                    9.6714025,
                    9.5964337
                ]
            },
            "properties": {}
        },
        {
            "type": "Feature",
            "geometry": {
                "type": "Point",
                "coordinates": [
                    9.671381,
                    9.5964469
                ]
            },
            "properties": {}
        },
        {
            "type": "Feature",
            "geometry": {
                "type": "Point",
                "coordinates": [
                    9.6713542,
                    9.5964496
                ]
            },
            "properties": {}
        },
        {
            "type": "Feature",
            "geometry": {
                "type": "Point",
                "coordinates": [
                    9.6713287,
                    9.5964469
                ]
            },
            "properties": {}
        },
        {
            "type": "Feature",
            "geometry": {
                "type": "Point",
                "coordinates": [
                    9.6712818,
                    9.5964324
                ]
            },
            "properties": {}
        },
        {
            "type": "Feature",
            "geometry": {
                "type": "Point",
                "coordinates": [
                    9.7108998,
                    9.6391417
                ]
            },
            "properties": {}
        },
        {
            "type": "Feature",
            "geometry": {
                "type": "Point",
                "coordinates": [
                    9.7108092,
                    9.6387296
                ]
            },
            "properties": {}
        },
        {
            "type": "Feature",
            "geometry": {
                "type": "Point",
                "coordinates": [
                    9.7113384,
                    9.6386231
                ]
            },
            "properties": {}
        },
        {
            "type": "Feature",
            "geometry": {
                "type": "Point",
                "coordinates": [
                    9.711421,
                    9.6390414
                ]
            },
            "properties": {}
        },
        {
            "type": "Feature",
            "geometry": {
                "type": "Point",
                "coordinates": [
                    9.7864202,
                    9.6044757
                ]
            },
            "properties": {}
        },
        {
            "type": "Feature",
            "geometry": {
                "type": "Point",
                "coordinates": [
                    9.7863495,
                    9.6045216
                ]
            },
            "properties": {}
        },
        {
            "type": "Feature",
            "geometry": {
                "type": "Point",
                "coordinates": [
                    9.7864816,
                    9.6045677
                ]
            },
            "properties": {}
        },
        {
            "type": "Feature",
            "geometry": {
                "type": "Point",
                "coordinates": [
                    9.7864109,
                    9.6046135
                ]
            },
            "properties": {}
        },
        {
            "type": "Feature",
            "geometry": {
                "type": "Point",
                "coordinates": [
                    9.7853056,
                    9.6061231
                ]
            },
            "properties": {}
        },
        {
            "type": "Feature",
            "geometry": {
                "type": "Point",
                "coordinates": [
                    9.7855591,
                    9.6063717
                ]
            },
            "properties": {}
        },
        {
            "type": "Feature",
            "geometry": {
                "type": "Point",
                "coordinates": [
                    9.7857334,
                    9.6061971
                ]
            },
            "properties": {}
        },
        {
            "type": "Feature",
            "geometry": {
                "type": "Point",
                "coordinates": [
                    9.7857321,
                    9.6061455
                ]
            },
            "properties": {}
        },
        {
            "type": "Feature",
            "geometry": {
                "type": "Point",
                "coordinates": [
                    9.7854947,
                    9.6059274
                ]
            },
            "properties": {}
        },
        {
            "type": "Feature",
            "geometry": {
                "type": "Point",
                "coordinates": [
                    9.8067257,
                    9.5977008
                ]
            },
            "properties": {}
        },
        {
            "type": "Feature",
            "geometry": {
                "type": "Point",
                "coordinates": [
                    9.8064399,
                    9.5976204
                ]
            },
            "properties": {}
        },
        {
            "type": "Feature",
            "geometry": {
                "type": "Point",
                "coordinates": [
                    9.8063599,
                    9.5978971
                ]
            },
            "properties": {}
        },
        {
            "type": "Feature",
            "geometry": {
                "type": "Point",
                "coordinates": [
                    9.8066457,
                    9.5979774
                ]
            },
            "properties": {}
        },
        {
            "type": "Feature",
            "geometry": {
                "type": "Point",
                "coordinates": [
                    9.9405387,
                    9.6352723
                ]
            },
            "properties": {}
        },
        {
            "type": "Feature",
            "geometry": {
                "type": "Point",
                "coordinates": [
                    9.9406417,
                    9.6353003
                ]
            },
            "properties": {}
        },
        {
            "type": "Feature",
            "geometry": {
                "type": "Point",
                "coordinates": [
                    9.9404668,
                    9.6353041
                ]
            },
            "properties": {}
        },
        {
            "type": "Feature",
            "geometry": {
                "type": "Point",
                "coordinates": [
                    9.9405253,
                    9.6353201
                ]
            },
            "properties": {}
        },
        {
            "type": "Feature",
            "geometry": {
                "type": "Point",
                "coordinates": [
                    9.9405867,
                    9.635374
                ]
            },
            "properties": {}
        },
        {
            "type": "Feature",
            "geometry": {
                "type": "Point",
                "coordinates": [
                    9.9406187,
                    9.6353827
                ]
            },
            "properties": {}
        },
        {
            "type": "Feature",
            "geometry": {
                "type": "Point",
                "coordinates": [
                    9.9404429,
                    9.6353895
                ]
            },
            "properties": {}
        },
        {
            "type": "Feature",
            "geometry": {
                "type": "Point",
                "coordinates": [
                    9.9405725,
                    9.6354248
                ]
            },
            "properties": {}
        },
        {
            "type": "Feature",
            "geometry": {
                "type": "Point",
                "coordinates": [
                    10.6595846,
                    9.6240062
                ]
            },
            "properties": {}
        },
        {
            "type": "Feature",
            "geometry": {
                "type": "Point",
                "coordinates": [
                    10.6597282,
                    9.6240062
                ]
            },
            "properties": {}
        },
        {
            "type": "Feature",
            "geometry": {
                "type": "Point",
                "coordinates": [
                    10.6595846,
                    9.6241164
                ]
            },
            "properties": {}
        },
        {
            "type": "Feature",
            "geometry": {
                "type": "Point",
                "coordinates": [
                    10.6597282,
                    9.6241164
                ]
            },
            "properties": {}
        },
        {
            "type": "Feature",
            "geometry": {
                "type": "Point",
                "coordinates": [
                    10.7454855,
                    9.6565876
                ]
            },
            "properties": {}
        },
        {
            "type": "Feature",
            "geometry": {
                "type": "Point",
                "coordinates": [
                    10.7455753,
                    9.656604
                ]
            },
            "properties": {}
        },
        {
            "type": "Feature",
            "geometry": {
                "type": "Point",
                "coordinates": [
                    10.7454782,
                    9.6566266
                ]
            },
            "properties": {}
        },
        {
            "type": "Feature",
            "geometry": {
                "type": "Point",
                "coordinates": [
                    10.7455679,
                    9.656643
                ]
            },
            "properties": {}
        },
        {
            "type": "Feature",
            "geometry": {
                "type": "Point",
                "coordinates": [
                    10.751674,
                    9.6530136
                ]
            },
            "properties": {}
        },
        {
            "type": "Feature",
            "geometry": {
                "type": "Point",
                "coordinates": [
                    10.7517933,
                    9.6530264
                ]
            },
            "properties": {}
        },
        {
            "type": "Feature",
            "geometry": {
                "type": "Point",
                "coordinates": [
                    10.7516637,
                    9.6531074
                ]
            },
            "properties": {}
        },
        {
            "type": "Feature",
            "geometry": {
                "type": "Point",
                "coordinates": [
                    10.7517829,
                    9.6531202
                ]
            },
            "properties": {}
        },
        {
            "type": "Feature",
            "geometry": {
                "type": "Point",
                "coordinates": [
                    9.1575606,
                    9.7432458
                ]
            },
            "properties": {}
        },
        {
            "type": "Feature",
            "geometry": {
                "type": "Point",
                "coordinates": [
                    9.157632,
                    9.7432484
                ]
            },
            "properties": {}
        },
        {
            "type": "Feature",
            "geometry": {
                "type": "Point",
                "coordinates": [
                    9.1576279,
                    9.7433612
                ]
            },
            "properties": {}
        },
        {
            "type": "Feature",
            "geometry": {
                "type": "Point",
                "coordinates": [
                    9.1575565,
                    9.7433586
                ]
            },
            "properties": {}
        },
        {
            "type": "Feature",
            "geometry": {
                "type": "Point",
                "coordinates": [
                    8.999691,
                    10.013731
                ]
            },
            "properties": {}
        },
        {
            "type": "Feature",
            "geometry": {
                "type": "Point",
                "coordinates": [
                    8.9998948,
                    10.0136808
                ]
            },
            "properties": {}
        },
        {
            "type": "Feature",
            "geometry": {
                "type": "Point",
                "coordinates": [
                    8.999809,
                    10.0134417
                ]
            },
            "properties": {}
        },
        {
            "type": "Feature",
            "geometry": {
                "type": "Point",
                "coordinates": [
                    8.9996011,
                    10.0135117
                ]
            },
            "properties": {}
        },
        {
            "type": "Feature",
            "geometry": {
                "type": "Point",
                "coordinates": [
                    8.9644005,
                    10.0676971
                ]
            },
            "properties": {}
        },
        {
            "type": "Feature",
            "geometry": {
                "type": "Point",
                "coordinates": [
                    8.9644164,
                    10.0676329
                ]
            },
            "properties": {}
        },
        {
            "type": "Feature",
            "geometry": {
                "type": "Point",
                "coordinates": [
                    8.9645091,
                    10.0676551
                ]
            },
            "properties": {}
        },
        {
            "type": "Feature",
            "geometry": {
                "type": "Point",
                "coordinates": [
                    8.9644933,
                    10.0677193
                ]
            },
            "properties": {}
        },
        {
            "type": "Feature",
            "geometry": {
                "type": "Point",
                "coordinates": [
                    8.9864603,
                    10.0402082
                ]
            },
            "properties": {}
        },
        {
            "type": "Feature",
            "geometry": {
                "type": "Point",
                "coordinates": [
                    8.9866014,
                    10.0398892
                ]
            },
            "properties": {}
        },
        {
            "type": "Feature",
            "geometry": {
                "type": "Point",
                "coordinates": [
                    8.9869669,
                    10.0400566
                ]
            },
            "properties": {}
        },
        {
            "type": "Feature",
            "geometry": {
                "type": "Point",
                "coordinates": [
                    8.9868435,
                    10.0403676
                ]
            },
            "properties": {}
        },
        {
            "type": "Feature",
            "geometry": {
                "type": "Point",
                "coordinates": [
                    8.994326,
                    10.0436493
                ]
            },
            "properties": {}
        },
        {
            "type": "Feature",
            "geometry": {
                "type": "Point",
                "coordinates": [
                    8.9943368,
                    10.0436001
                ]
            },
            "properties": {}
        },
        {
            "type": "Feature",
            "geometry": {
                "type": "Point",
                "coordinates": [
                    8.9944307,
                    10.0436202
                ]
            },
            "properties": {}
        },
        {
            "type": "Feature",
            "geometry": {
                "type": "Point",
                "coordinates": [
                    8.9944198,
                    10.0436695
                ]
            },
            "properties": {}
        },
        {
            "type": "Feature",
            "geometry": {
                "type": "Point",
                "coordinates": [
                    9.0198847,
                    10.036695
                ]
            },
            "properties": {}
        },
        {
            "type": "Feature",
            "geometry": {
                "type": "Point",
                "coordinates": [
                    9.0198989,
                    10.0366497
                ]
            },
            "properties": {}
        },
        {
            "type": "Feature",
            "geometry": {
                "type": "Point",
                "coordinates": [
                    9.0199869,
                    10.0366763
                ]
            },
            "properties": {}
        },
        {
            "type": "Feature",
            "geometry": {
                "type": "Point",
                "coordinates": [
                    9.0199727,
                    10.0367217
                ]
            },
            "properties": {}
        },
        {
            "type": "Feature",
            "geometry": {
                "type": "Point",
                "coordinates": [
                    9.0644521,
                    10.0583976
                ]
            },
            "properties": {}
        },
        {
            "type": "Feature",
            "geometry": {
                "type": "Point",
                "coordinates": [
                    9.0645415,
                    10.0582298
                ]
            },
            "properties": {}
        },
        {
            "type": "Feature",
            "geometry": {
                "type": "Point",
                "coordinates": [
                    9.0646067,
                    10.0582635
                ]
            },
            "properties": {}
        },
        {
            "type": "Feature",
            "geometry": {
                "type": "Point",
                "coordinates": [
                    9.0645173,
                    10.0584313
                ]
            },
            "properties": {}
        },
        {
            "type": "Feature",
            "geometry": {
                "type": "Point",
                "coordinates": [
                    9.0961992,
                    10.0602063
                ]
            },
            "properties": {}
        },
        {
            "type": "Feature",
            "geometry": {
                "type": "Point",
                "coordinates": [
                    9.0962223,
                    10.0601092
                ]
            },
            "properties": {}
        },
        {
            "type": "Feature",
            "geometry": {
                "type": "Point",
                "coordinates": [
                    9.0962889,
                    10.0601245
                ]
            },
            "properties": {}
        },
        {
            "type": "Feature",
            "geometry": {
                "type": "Point",
                "coordinates": [
                    9.0962659,
                    10.0602217
                ]
            },
            "properties": {}
        },
        {
            "type": "Feature",
            "geometry": {
                "type": "Point",
                "coordinates": [
                    9.098475,
                    10.0597867
                ]
            },
            "properties": {}
        },
        {
            "type": "Feature",
            "geometry": {
                "type": "Point",
                "coordinates": [
                    9.0979827,
                    10.0619791
                ]
            },
            "properties": {}
        },
        {
            "type": "Feature",
            "geometry": {
                "type": "Point",
                "coordinates": [
                    9.0985395,
                    10.0596994
                ]
            },
            "properties": {}
        },
        {
            "type": "Feature",
            "geometry": {
                "type": "Point",
                "coordinates": [
                    9.098623,
                    10.0597426
                ]
            },
            "properties": {}
        },
        {
            "type": "Feature",
            "geometry": {
                "type": "Point",
                "coordinates": [
                    9.098615,
                    10.0597535
                ]
            },
            "properties": {}
        },
        {
            "type": "Feature",
            "geometry": {
                "type": "Point",
                "coordinates": [
                    9.098698,
                    10.0597964
                ]
            },
            "properties": {}
        },
        {
            "type": "Feature",
            "geometry": {
                "type": "Point",
                "coordinates": [
                    9.0986254,
                    10.0598945
                ]
            },
            "properties": {}
        },
        {
            "type": "Feature",
            "geometry": {
                "type": "Point",
                "coordinates": [
                    9.0980216,
                    10.0618587
                ]
            },
            "properties": {}
        },
        {
            "type": "Feature",
            "geometry": {
                "type": "Point",
                "coordinates": [
                    9.0980051,
                    10.0618971
                ]
            },
            "properties": {}
        },
        {
            "type": "Feature",
            "geometry": {
                "type": "Point",
                "coordinates": [
                    9.0981497,
                    10.0619121
                ]
            },
            "properties": {}
        },
        {
            "type": "Feature",
            "geometry": {
                "type": "Point",
                "coordinates": [
                    9.0980597,
                    10.0619198
                ]
            },
            "properties": {}
        },
        {
            "type": "Feature",
            "geometry": {
                "type": "Point",
                "coordinates": [
                    9.0980054,
                    10.0619263
                ]
            },
            "properties": {}
        },
        {
            "type": "Feature",
            "geometry": {
                "type": "Point",
                "coordinates": [
                    9.0980851,
                    10.061933
                ]
            },
            "properties": {}
        },
        {
            "type": "Feature",
            "geometry": {
                "type": "Point",
                "coordinates": [
                    9.0980491,
                    10.0619445
                ]
            },
            "properties": {}
        },
        {
            "type": "Feature",
            "geometry": {
                "type": "Point",
                "coordinates": [
                    9.0981323,
                    10.0619526
                ]
            },
            "properties": {}
        },
        {
            "type": "Feature",
            "geometry": {
                "type": "Point",
                "coordinates": [
                    9.0980754,
                    10.0619555
                ]
            },
            "properties": {}
        },
        {
            "type": "Feature",
            "geometry": {
                "type": "Point",
                "coordinates": [
                    9.0981249,
                    10.0619761
                ]
            },
            "properties": {}
        },
        {
            "type": "Feature",
            "geometry": {
                "type": "Point",
                "coordinates": [
                    9.0981022,
                    10.0620289
                ]
            },
            "properties": {}
        },
        {
            "type": "Feature",
            "geometry": {
                "type": "Point",
                "coordinates": [
                    9.1260918,
                    10.0695293
                ]
            },
            "properties": {}
        },
        {
            "type": "Feature",
            "geometry": {
                "type": "Point",
                "coordinates": [
                    9.1268888,
                    10.0687915
                ]
            },
            "properties": {}
        },
        {
            "type": "Feature",
            "geometry": {
                "type": "Point",
                "coordinates": [
                    9.1261203,
                    10.0693356
                ]
            },
            "properties": {}
        },
        {
            "type": "Feature",
            "geometry": {
                "type": "Point",
                "coordinates": [
                    9.1262315,
                    10.0693515
                ]
            },
            "properties": {}
        },
        {
            "type": "Feature",
            "geometry": {
                "type": "Point",
                "coordinates": [
                    9.126203,
                    10.0695451
                ]
            },
            "properties": {}
        },
        {
            "type": "Feature",
            "geometry": {
                "type": "Point",
                "coordinates": [
                    9.1271274,
                    10.0688336
                ]
            },
            "properties": {}
        },
        {
            "type": "Feature",
            "geometry": {
                "type": "Point",
                "coordinates": [
                    9.127244,
                    10.0685474
                ]
            },
            "properties": {}
        },
        {
            "type": "Feature",
            "geometry": {
                "type": "Point",
                "coordinates": [
                    9.1269709,
                    10.0684504
                ]
            },
            "properties": {}
        },
        {
            "type": "Feature",
            "geometry": {
                "type": "Point",
                "coordinates": [
                    9.1311045,
                    10.0687743
                ]
            },
            "properties": {}
        },
        {
            "type": "Feature",
            "geometry": {
                "type": "Point",
                "coordinates": [
                    9.1311863,
                    10.0684283
                ]
            },
            "properties": {}
        },
        {
            "type": "Feature",
            "geometry": {
                "type": "Point",
                "coordinates": [
                    9.1315578,
                    10.0685129
                ]
            },
            "properties": {}
        },
        {
            "type": "Feature",
            "geometry": {
                "type": "Point",
                "coordinates": [
                    9.1314452,
                    10.0688562
                ]
            },
            "properties": {}
        },
        {
            "type": "Feature",
            "geometry": {
                "type": "Point",
                "coordinates": [
                    9.164202,
                    10.0822835
                ]
            },
            "properties": {}
        },
        {
            "type": "Feature",
            "geometry": {
                "type": "Point",
                "coordinates": [
                    9.1642097,
                    10.0821794
                ]
            },
            "properties": {}
        },
        {
            "type": "Feature",
            "geometry": {
                "type": "Point",
                "coordinates": [
                    9.164258,
                    10.0822226
                ]
            },
            "properties": {}
        },
        {
            "type": "Feature",
            "geometry": {
                "type": "Point",
                "coordinates": [
                    9.1641537,
                    10.0822403
                ]
            },
            "properties": {}
        },
        {
            "type": "Feature",
            "geometry": {
                "type": "Point",
                "coordinates": [
                    8.7593639,
                    10.4526412
                ]
            },
            "properties": {}
        },
        {
            "type": "Feature",
            "geometry": {
                "type": "Point",
                "coordinates": [
                    8.759791,
                    10.4526545
                ]
            },
            "properties": {}
        },
        {
            "type": "Feature",
            "geometry": {
                "type": "Point",
                "coordinates": [
                    8.7593477,
                    10.4531427
                ]
            },
            "properties": {}
        },
        {
            "type": "Feature",
            "geometry": {
                "type": "Point",
                "coordinates": [
                    8.7597749,
                    10.453156
                ]
            },
            "properties": {}
        },
        {
            "type": "Feature",
            "geometry": {
                "type": "Point",
                "coordinates": [
                    9.0159184,
                    10.2496812
                ]
            },
            "properties": {}
        },
        {
            "type": "Feature",
            "geometry": {
                "type": "Point",
                "coordinates": [
                    9.0159223,
                    10.2496023
                ]
            },
            "properties": {}
        },
        {
            "type": "Feature",
            "geometry": {
                "type": "Point",
                "coordinates": [
                    9.0160441,
                    10.2496082
                ]
            },
            "properties": {}
        },
        {
            "type": "Feature",
            "geometry": {
                "type": "Point",
                "coordinates": [
                    9.0160403,
                    10.249687
                ]
            },
            "properties": {}
        },
        {
            "type": "Feature",
            "geometry": {
                "type": "Point",
                "coordinates": [
                    9.0159801,
                    10.2496051
                ]
            },
            "properties": {}
        },
        {
            "type": "Feature",
            "geometry": {
                "type": "Point",
                "coordinates": [
                    9.0170824,
                    10.2546242
                ]
            },
            "properties": {}
        },
        {
            "type": "Feature",
            "geometry": {
                "type": "Point",
                "coordinates": [
                    9.0135547,
                    10.2590781
                ]
            },
            "properties": {}
        },
        {
            "type": "Feature",
            "geometry": {
                "type": "Point",
                "coordinates": [
                    9.0119808,
                    10.258451
                ]
            },
            "properties": {}
        },
        {
            "type": "Feature",
            "geometry": {
                "type": "Point",
                "coordinates": [
                    9.0171312,
                    10.2545768
                ]
            },
            "properties": {}
        },
        {
            "type": "Feature",
            "geometry": {
                "type": "Point",
                "coordinates": [
                    9.0172156,
                    10.2546607
                ]
            },
            "properties": {}
        },
        {
            "type": "Feature",
            "geometry": {
                "type": "Point",
                "coordinates": [
                    9.0171669,
                    10.2547082
                ]
            },
            "properties": {}
        },
        {
            "type": "Feature",
            "geometry": {
                "type": "Point",
                "coordinates": [
                    9.0139745,
                    10.2587587
                ]
            },
            "properties": {}
        },
        {
            "type": "Feature",
            "geometry": {
                "type": "Point",
                "coordinates": [
                    9.0136929,
                    10.2583734
                ]
            },
            "properties": {}
        },
        {
            "type": "Feature",
            "geometry": {
                "type": "Point",
                "coordinates": [
                    9.0132516,
                    10.2587006
                ]
            },
            "properties": {}
        },
        {
            "type": "Feature",
            "geometry": {
                "type": "Point",
                "coordinates": [
                    9.012009,
                    10.2583071
                ]
            },
            "properties": {}
        },
        {
            "type": "Feature",
            "geometry": {
                "type": "Point",
                "coordinates": [
                    9.0122222,
                    10.2583335
                ]
            },
            "properties": {}
        },
        {
            "type": "Feature",
            "geometry": {
                "type": "Point",
                "coordinates": [
                    9.0122075,
                    10.2585249
                ]
            },
            "properties": {}
        },
        {
            "type": "Feature",
            "geometry": {
                "type": "Point",
                "coordinates": [
                    9.0119755,
                    10.2584787
                ]
            },
            "properties": {}
        },
        {
            "type": "Feature",
            "geometry": {
                "type": "Point",
                "coordinates": [
                    8.9770875,
                    10.282306
                ]
            },
            "properties": {}
        },
        {
            "type": "Feature",
            "geometry": {
                "type": "Point",
                "coordinates": [
                    8.9770776,
                    10.282193
                ]
            },
            "properties": {}
        },
        {
            "type": "Feature",
            "geometry": {
                "type": "Point",
                "coordinates": [
                    8.9771229,
                    10.282303
                ]
            },
            "properties": {}
        },
        {
            "type": "Feature",
            "geometry": {
                "type": "Point",
                "coordinates": [
                    8.977113,
                    10.28219
                ]
            },
            "properties": {}
        },
        {
            "type": "Feature",
            "geometry": {
                "type": "Point",
                "coordinates": [
                    9.0280159,
                    10.1311267
                ]
            },
            "properties": {}
        },
        {
            "type": "Feature",
            "geometry": {
                "type": "Point",
                "coordinates": [
                    9.0282362,
                    10.1312089
                ]
            },
            "properties": {}
        },
        {
            "type": "Feature",
            "geometry": {
                "type": "Point",
                "coordinates": [
                    9.0282821,
                    10.1310503
                ]
            },
            "properties": {}
        },
        {
            "type": "Feature",
            "geometry": {
                "type": "Point",
                "coordinates": [
                    9.0280819,
                    10.1309978
                ]
            },
            "properties": {}
        },
        {
            "type": "Feature",
            "geometry": {
                "type": "Point",
                "coordinates": [
                    9.0428522,
                    10.1236235
                ]
            },
            "properties": {}
        },
        {
            "type": "Feature",
            "geometry": {
                "type": "Point",
                "coordinates": [
                    9.0429848,
                    10.1235404
                ]
            },
            "properties": {}
        },
        {
            "type": "Feature",
            "geometry": {
                "type": "Point",
                "coordinates": [
                    9.0428465,
                    10.1235509
                ]
            },
            "properties": {}
        },
        {
            "type": "Feature",
            "geometry": {
                "type": "Point",
                "coordinates": [
                    9.0429905,
                    10.123613
                ]
            },
            "properties": {}
        },
        {
            "type": "Feature",
            "geometry": {
                "type": "Point",
                "coordinates": [
                    9.101664,
                    10.0842738
                ]
            },
            "properties": {}
        },
        {
            "type": "Feature",
            "geometry": {
                "type": "Point",
                "coordinates": [
                    9.101674,
                    10.0841819
                ]
            },
            "properties": {}
        },
        {
            "type": "Feature",
            "geometry": {
                "type": "Point",
                "coordinates": [
                    9.1017367,
                    10.0841886
                ]
            },
            "properties": {}
        },
        {
            "type": "Feature",
            "geometry": {
                "type": "Point",
                "coordinates": [
                    9.1017266,
                    10.0842805
                ]
            },
            "properties": {}
        },
        {
            "type": "Feature",
            "geometry": {
                "type": "Point",
                "coordinates": [
                    9.0934361,
                    10.1720883
                ]
            },
            "properties": {}
        },
        {
            "type": "Feature",
            "geometry": {
                "type": "Point",
                "coordinates": [
                    9.0934324,
                    10.1719676
                ]
            },
            "properties": {}
        },
        {
            "type": "Feature",
            "geometry": {
                "type": "Point",
                "coordinates": [
                    9.093377,
                    10.1720063
                ]
            },
            "properties": {}
        },
        {
            "type": "Feature",
            "geometry": {
                "type": "Point",
                "coordinates": [
                    9.0934915,
                    10.1720496
                ]
            },
            "properties": {}
        },
        {
            "type": "Feature",
            "geometry": {
                "type": "Point",
                "coordinates": [
                    9.2235815,
                    10.1022288
                ]
            },
            "properties": {}
        },
        {
            "type": "Feature",
            "geometry": {
                "type": "Point",
                "coordinates": [
                    9.2235989,
                    10.1021435
                ]
            },
            "properties": {}
        },
        {
            "type": "Feature",
            "geometry": {
                "type": "Point",
                "coordinates": [
                    9.223666,
                    10.1021568
                ]
            },
            "properties": {}
        },
        {
            "type": "Feature",
            "geometry": {
                "type": "Point",
                "coordinates": [
                    9.2236486,
                    10.1022421
                ]
            },
            "properties": {}
        },
        {
            "type": "Feature",
            "geometry": {
                "type": "Point",
                "coordinates": [
                    9.0455079,
                    10.2138898
                ]
            },
            "properties": {}
        },
        {
            "type": "Feature",
            "geometry": {
                "type": "Point",
                "coordinates": [
                    9.0455357,
                    10.2138335
                ]
            },
            "properties": {}
        },
        {
            "type": "Feature",
            "geometry": {
                "type": "Point",
                "coordinates": [
                    9.0456285,
                    10.2138779
                ]
            },
            "properties": {}
        },
        {
            "type": "Feature",
            "geometry": {
                "type": "Point",
                "coordinates": [
                    9.0456007,
                    10.2139342
                ]
            },
            "properties": {}
        },
        {
            "type": "Feature",
            "geometry": {
                "type": "Point",
                "coordinates": [
                    9.0829091,
                    10.2694749
                ]
            },
            "properties": {}
        },
        {
            "type": "Feature",
            "geometry": {
                "type": "Point",
                "coordinates": [
                    9.082951,
                    10.2694022
                ]
            },
            "properties": {}
        },
        {
            "type": "Feature",
            "geometry": {
                "type": "Point",
                "coordinates": [
                    9.0829997,
                    10.2694294
                ]
            },
            "properties": {}
        },
        {
            "type": "Feature",
            "geometry": {
                "type": "Point",
                "coordinates": [
                    9.0829577,
                    10.2695021
                ]
            },
            "properties": {}
        },
        {
            "type": "Feature",
            "geometry": {
                "type": "Point",
                "coordinates": [
                    8.9791255,
                    10.318563
                ]
            },
            "properties": {}
        },
        {
            "type": "Feature",
            "geometry": {
                "type": "Point",
                "coordinates": [
                    8.979163,
                    10.3184811
                ]
            },
            "properties": {}
        },
        {
            "type": "Feature",
            "geometry": {
                "type": "Point",
                "coordinates": [
                    8.9794012,
                    10.3185935
                ]
            },
            "properties": {}
        },
        {
            "type": "Feature",
            "geometry": {
                "type": "Point",
                "coordinates": [
                    8.9791189,
                    10.3187781
                ]
            },
            "properties": {}
        },
        {
            "type": "Feature",
            "geometry": {
                "type": "Point",
                "coordinates": [
                    8.9793359,
                    10.318709
                ]
            },
            "properties": {}
        },
        {
            "type": "Feature",
            "geometry": {
                "type": "Point",
                "coordinates": [
                    8.9791875,
                    10.3187781
                ]
            },
            "properties": {}
        },
        {
            "type": "Feature",
            "geometry": {
                "type": "Point",
                "coordinates": [
                    9.0148794,
                    10.3931889
                ]
            },
            "properties": {}
        },
        {
            "type": "Feature",
            "geometry": {
                "type": "Point",
                "coordinates": [
                    9.0154189,
                    10.3932001
                ]
            },
            "properties": {}
        },
        {
            "type": "Feature",
            "geometry": {
                "type": "Point",
                "coordinates": [
                    9.0148298,
                    10.3938102
                ]
            },
            "properties": {}
        },
        {
            "type": "Feature",
            "geometry": {
                "type": "Point",
                "coordinates": [
                    9.0153853,
                    10.3938735
                ]
            },
            "properties": {}
        },
        {
            "type": "Feature",
            "geometry": {
                "type": "Point",
                "coordinates": [
                    8.8281063,
                    10.4061301
                ]
            },
            "properties": {}
        },
        {
            "type": "Feature",
            "geometry": {
                "type": "Point",
                "coordinates": [
                    8.8280191,
                    10.4061658
                ]
            },
            "properties": {}
        },
        {
            "type": "Feature",
            "geometry": {
                "type": "Point",
                "coordinates": [
                    8.828043,
                    10.4062224
                ]
            },
            "properties": {}
        },
        {
            "type": "Feature",
            "geometry": {
                "type": "Point",
                "coordinates": [
                    8.8281302,
                    10.4061868
                ]
            },
            "properties": {}
        },
        {
            "type": "Feature",
            "geometry": {
                "type": "Point",
                "coordinates": [
                    8.8979503,
                    10.4787005
                ]
            },
            "properties": {}
        },
        {
            "type": "Feature",
            "geometry": {
                "type": "Point",
                "coordinates": [
                    8.8977404,
                    10.478441
                ]
            },
            "properties": {}
        },
        {
            "type": "Feature",
            "geometry": {
                "type": "Point",
                "coordinates": [
                    8.8979051,
                    10.4783122
                ]
            },
            "properties": {}
        },
        {
            "type": "Feature",
            "geometry": {
                "type": "Point",
                "coordinates": [
                    8.898115,
                    10.4785717
                ]
            },
            "properties": {}
        },
        {
            "type": "Feature",
            "geometry": {
                "type": "Point",
                "coordinates": [
                    8.9387392,
                    10.4843578
                ]
            },
            "properties": {}
        },
        {
            "type": "Feature",
            "geometry": {
                "type": "Point",
                "coordinates": [
                    8.9392371,
                    10.4835487
                ]
            },
            "properties": {}
        },
        {
            "type": "Feature",
            "geometry": {
                "type": "Point",
                "coordinates": [
                    8.9402076,
                    10.4841261
                ]
            },
            "properties": {}
        },
        {
            "type": "Feature",
            "geometry": {
                "type": "Point",
                "coordinates": [
                    8.9397099,
                    10.4849352
                ]
            },
            "properties": {}
        },
        {
            "type": "Feature",
            "geometry": {
                "type": "Point",
                "coordinates": [
                    9.0832441,
                    10.3399303
                ]
            },
            "properties": {}
        },
        {
            "type": "Feature",
            "geometry": {
                "type": "Point",
                "coordinates": [
                    9.0831088,
                    10.3396269
                ]
            },
            "properties": {}
        },
        {
            "type": "Feature",
            "geometry": {
                "type": "Point",
                "coordinates": [
                    9.0830451,
                    10.3398823
                ]
            },
            "properties": {}
        },
        {
            "type": "Feature",
            "geometry": {
                "type": "Point",
                "coordinates": [
                    9.0833079,
                    10.339675
                ]
            },
            "properties": {}
        },
        {
            "type": "Feature",
            "geometry": {
                "type": "Point",
                "coordinates": [
                    9.1965706,
                    10.3007354
                ]
            },
            "properties": {}
        },
        {
            "type": "Feature",
            "geometry": {
                "type": "Point",
                "coordinates": [
                    9.1965721,
                    10.3007055
                ]
            },
            "properties": {}
        },
        {
            "type": "Feature",
            "geometry": {
                "type": "Point",
                "coordinates": [
                    9.1966248,
                    10.3007081
                ]
            },
            "properties": {}
        },
        {
            "type": "Feature",
            "geometry": {
                "type": "Point",
                "coordinates": [
                    9.1966233,
                    10.3007379
                ]
            },
            "properties": {}
        },
        {
            "type": "Feature",
            "geometry": {
                "type": "Point",
                "coordinates": [
                    9.2224259,
                    10.3840883
                ]
            },
            "properties": {}
        },
        {
            "type": "Feature",
            "geometry": {
                "type": "Point",
                "coordinates": [
                    9.2222983,
                    10.3839886
                ]
            },
            "properties": {}
        },
        {
            "type": "Feature",
            "geometry": {
                "type": "Point",
                "coordinates": [
                    9.2224105,
                    10.3838495
                ]
            },
            "properties": {}
        },
        {
            "type": "Feature",
            "geometry": {
                "type": "Point",
                "coordinates": [
                    9.2225382,
                    10.3839492
                ]
            },
            "properties": {}
        },
        {
            "type": "Feature",
            "geometry": {
                "type": "Point",
                "coordinates": [
                    9.1471774,
                    10.472134
                ]
            },
            "properties": {}
        },
        {
            "type": "Feature",
            "geometry": {
                "type": "Point",
                "coordinates": [
                    9.1470483,
                    10.4721284
                ]
            },
            "properties": {}
        },
        {
            "type": "Feature",
            "geometry": {
                "type": "Point",
                "coordinates": [
                    9.1470564,
                    10.4719493
                ]
            },
            "properties": {}
        },
        {
            "type": "Feature",
            "geometry": {
                "type": "Point",
                "coordinates": [
                    9.1471855,
                    10.4719549
                ]
            },
            "properties": {}
        },
        {
            "type": "Feature",
            "geometry": {
                "type": "Point",
                "coordinates": [
                    9.2991169,
                    9.6800199
                ]
            },
            "properties": {}
        },
        {
            "type": "Feature",
            "geometry": {
                "type": "Point",
                "coordinates": [
                    9.2991849,
                    9.68005
                ]
            },
            "properties": {}
        },
        {
            "type": "Feature",
            "geometry": {
                "type": "Point",
                "coordinates": [
                    9.2991364,
                    9.6801564
                ]
            },
            "properties": {}
        },
        {
            "type": "Feature",
            "geometry": {
                "type": "Point",
                "coordinates": [
                    9.2990685,
                    9.6801263
                ]
            },
            "properties": {}
        },
        {
            "type": "Feature",
            "geometry": {
                "type": "Point",
                "coordinates": [
                    9.2771504,
                    9.7246989
                ]
            },
            "properties": {}
        },
        {
            "type": "Feature",
            "geometry": {
                "type": "Point",
                "coordinates": [
                    9.2772714,
                    9.7247195
                ]
            },
            "properties": {}
        },
        {
            "type": "Feature",
            "geometry": {
                "type": "Point",
                "coordinates": [
                    9.2771425,
                    9.724744
                ]
            },
            "properties": {}
        },
        {
            "type": "Feature",
            "geometry": {
                "type": "Point",
                "coordinates": [
                    9.2772638,
                    9.7247631
                ]
            },
            "properties": {}
        },
        {
            "type": "Feature",
            "geometry": {
                "type": "Point",
                "coordinates": [
                    9.2770814,
                    9.7247344
                ]
            },
            "properties": {}
        },
        {
            "type": "Feature",
            "geometry": {
                "type": "Point",
                "coordinates": [
                    9.2772705,
                    9.7247642
                ]
            },
            "properties": {}
        },
        {
            "type": "Feature",
            "geometry": {
                "type": "Point",
                "coordinates": [
                    9.277252,
                    9.7248785
                ]
            },
            "properties": {}
        },
        {
            "type": "Feature",
            "geometry": {
                "type": "Point",
                "coordinates": [
                    9.2770629,
                    9.7248487
                ]
            },
            "properties": {}
        },
        {
            "type": "Feature",
            "geometry": {
                "type": "Point",
                "coordinates": [
                    9.3371371,
                    9.7130502
                ]
            },
            "properties": {}
        },
        {
            "type": "Feature",
            "geometry": {
                "type": "Point",
                "coordinates": [
                    9.3372818,
                    9.7128709
                ]
            },
            "properties": {}
        },
        {
            "type": "Feature",
            "geometry": {
                "type": "Point",
                "coordinates": [
                    9.3374029,
                    9.7128762
                ]
            },